{
	"airports": [{
		"locationType": "AIRPORT",
		"peopleSoftId": "1018840",
		"addressLines": ["6400 N Schilling Rd"],
		"city": "Chicago",
		"state": "IL",
		"postalCode": "60666",
		"countryCode": "US",
		"airportCode": "ORD",
		"currencyCode": "USD",
		"internationalPhoneNumberPrefix": "1",
		"phoneNumber": "8479283320",
		"afterHoursPickup": false,
		"afterHoursDropoff": true,
		"defaultLocationName": "OHARE INTL ARPT",
		"stationId": "ORDT61",
		"latitude": "41.995592",
		"longitude": "-87.885729",
		"brand": "ENTERPRISE",
		"locationNameTranslation": "Chicago O'hare International Airport",
		"is24HourLocation": false,
		"attributesWithType": [{
			"name": "ENTERPRISE",
			"type": "BRAND",
			"code": ""
		}, {
			"name": "ONE_WAYS",
			"type": "BUSINESS_TYPE",
			"code": ""
		}],
		"attributes": ["ENTERPRISE", "ONE_WAYS"],
		"bookable": true,
		"bookingUrl": null,
		"ageOptions": [{
			"value": 18,
			"selected": false,
			"label": "18"
		}, {
			"value": 19,
			"selected": false,
			"label": "19"
		}, {
			"value": 20,
			"selected": false,
			"label": "20"
		}, {
			"value": 21,
			"selected": false,
			"label": "21"
		}, {
			"value": 22,
			"selected": false,
			"label": "22"
		}, {
			"value": 23,
			"selected": false,
			"label": "23"
		}, {
			"value": 24,
			"selected": false,
			"label": "24"
		}, {
			"value": 25,
			"selected": true,
			"label": "25+"
		}],
		"groupBranchNumber": "15V5",
		"formattedCityStateZip": "Chicago, IL 60666",
		"formattedPhone": "+1 847-928-3320",
		"updateTimestamp": null,
		"closed": false,
		"openSundays": true
	}],
	"branches": [],
	"cities": [{
		"cityId": "5074567",
		"shortName": "Ord",
		"longName": "Ord, Nebraska, United States",
		"longCode": "Ord, NE, US",
		"latitude": "41.60334",
		"longitude": "-98.9262",
		"countryCode": "US",
		"population": 2112
	}, {
		"cityId": "5433564",
		"shortName": "Ordway",
		"longName": "Ordway, Colorado, United States",
		"longCode": "Ordway, CO, US",
		"latitude": "38.21806",
		"longitude": "-103.75606",
		"countryCode": "US",
		"population": 1080
	}, {
		"cityId": "5544411",
		"shortName": "Orderville",
		"longName": "Orderville, Utah, United States",
		"longCode": "Orderville, UT, US",
		"latitude": "37.27582",
		"longitude": "-112.63771",
		"countryCode": "US",
		"population": 577
	}, {
		"cityId": "4547277",
		"shortName": "Ord",
		"longName": "Ord, Oklahoma, United States",
		"longCode": "Ord, OK, US",
		"latitude": "33.9101",
		"longitude": "-95.4994",
		"countryCode": "US",
		"population": 0
	}, {
		"cityId": "4777497",
		"shortName": "Ordinary",
		"longName": "Ordinary, Virginia, United States",
		"longCode": "Ordinary, VA, US",
		"latitude": "37.31542",
		"longitude": "-76.51328",
		"countryCode": "US",
		"population": 0
	}, {
		"cityId": "4777499",
		"shortName": "Ordsburg",
		"longName": "Ordsburg, Virginia, United States",
		"longCode": "Ordsburg, VA, US",
		"latitude": "36.95043",
		"longitude": "-77.87528",
		"countryCode": "US",
		"population": 0
	}, {
		"cityId": "4503410",
		"shortName": "Ordmont",
		"longName": "Ordmont, New Jersey, United States",
		"longCode": "Ordmont, NJ, US",
		"latitude": "39.74095",
		"longitude": "-75.45853",
		"countryCode": "US",
		"population": 0
	}, {
		"cityId": "4870117",
		"shortName": "Ord",
		"longName": "Ord, Iowa, United States",
		"longCode": "Ord, IA, US",
		"latitude": "41.2511",
		"longitude": "-94.07106",
		"countryCode": "US",
		"population": 0
	}, {
		"cityId": "4303308",
		"shortName": "Ordinary",
		"longName": "Ordinary, Kentucky, United States",
		"longCode": "Ordinary, KY, US",
		"latitude": "38.15481",
		"longitude": "-83.19462",
		"countryCode": "US",
		"population": 0
	}, {
		"cityId": "5379629",
		"shortName": "Ordbend",
		"longName": "Ordbend, California, United States",
		"longCode": "Ordbend, CA, US",
		"latitude": "39.62961",
		"longitude": "-122.00553",
		"countryCode": "US",
		"population": 0
	}, {
		"cityId": "5230239",
		"shortName": "Ordway",
		"longName": "Ordway, South Dakota, United States",
		"longCode": "Ordway, SD, US",
		"latitude": "45.57858",
		"longitude": "-98.41204",
		"countryCode": "US",
		"population": 0
	}, {
		"cityId": "5379635",
		"shortName": "Ordway",
		"longName": "Ordway, California, United States",
		"longCode": "Ordway, CA, US",
		"latitude": "34.00418",
		"longitude": "-117.16781",
		"countryCode": "US",
		"population": 0
	}, {
		"cityId": "741100",
		"shortName": "Ordu",
		"longName": "Ordu, Turkey",
		"longCode": "Ordu, TR",
		"latitude": "40.98472",
		"longitude": "37.87889",
		"countryCode": "TR",
		"population": 116788
	}, {
		"cityId": "3114992",
		"shortName": "Ordes",
		"longName": "Ordes, Spain",
		"longCode": "Ordes, ES",
		"latitude": "43.07654",
		"longitude": "-8.409",
		"countryCode": "ES",
		"population": 12757
	}, {
		"cityId": "297466",
		"shortName": "Yayladağı",
		"longName": "Yayladağı, Turkey",
		"longCode": "Yayladağı, TR",
		"latitude": "35.9025",
		"longitude": "36.06272",
		"countryCode": "TR",
		"population": 8308
	}, {
		"cityId": "668963",
		"shortName": "Repedea",
		"longName": "Repedea, Romania",
		"longCode": "Repedea, RO",
		"latitude": "47.83333",
		"longitude": "24.4",
		"countryCode": "RO",
		"population": 4688
	}, {
		"cityId": "3171973",
		"shortName": "Ordona",
		"longName": "Ordona, Italy",
		"longCode": "Ordona, IT",
		"latitude": "41.31501",
		"longitude": "15.62832",
		"countryCode": "IT",
		"population": 2654
	}, {
		"cityId": "3842593",
		"shortName": "Ordóñez",
		"longName": "Ordóñez, Argentina",
		"longCode": "Ordóñez, AR",
		"latitude": "-32.84057",
		"longitude": "-62.86552",
		"countryCode": "AR",
		"population": 2328
	}, {
		"cityId": "3994142",
		"shortName": "Orduña de Abajo",
		"longName": "Orduña de Abajo, Guanajuato, Mexico",
		"longCode": "Orduña de Abajo, GUA, MX",
		"latitude": "20.75806",
		"longitude": "-100.78278",
		"countryCode": "MX",
		"population": 1538
	}, {
		"cityId": "2989412",
		"shortName": "Ordan-Larroque",
		"longName": "Ordan-Larroque, France",
		"longCode": "Ordan-Larroque, FR",
		"latitude": "43.68644",
		"longitude": "0.45902",
		"countryCode": "FR",
		"population": 816
	}, {
		"cityId": "2989410",
		"shortName": "Ordiarp",
		"longName": "Ordiarp, France",
		"longCode": "Ordiarp, FR",
		"latitude": "43.18661",
		"longitude": "-0.94435",
		"countryCode": "FR",
		"population": 557
	}, {
		"cityId": "2989407",
		"shortName": "Ordonnac",
		"longName": "Ordonnac, France",
		"longCode": "Ordonnac, FR",
		"latitude": "45.30656",
		"longitude": "-0.83489",
		"countryCode": "FR",
		"population": 442
	}, {
		"cityId": "2989408",
		"shortName": "Ordizan",
		"longName": "Ordizan, France",
		"longCode": "Ordizan, FR",
		"latitude": "43.1084",
		"longitude": "0.13018",
		"countryCode": "FR",
		"population": 413
	}, {
		"cityId": "3114985",
		"shortName": "Ordis",
		"longName": "Ordis, Spain",
		"longCode": "Ordis, ES",
		"latitude": "42.2183",
		"longitude": "2.90705",
		"countryCode": "ES",
		"population": 328
	}, {
		"cityId": "4001068",
		"shortName": "La Ordeña",
		"longName": "La Ordeña, Querétaro, Mexico",
		"longCode": "La Ordeña, QUE, MX",
		"latitude": "21.12639",
		"longitude": "-100.01222",
		"countryCode": "MX",
		"population": 251
	}, {
		"cityId": "2989406",
		"shortName": "Ordonnaz",
		"longName": "Ordonnaz, France",
		"longCode": "Ordonnaz, FR",
		"latitude": "45.83574",
		"longitude": "5.5376",
		"countryCode": "FR",
		"population": 131
	}, {
		"cityId": "4001071",
		"shortName": "Haciendita de la Ordeña",
		"longName": "Haciendita de la Ordeña, Guanajuato, Mexico",
		"longCode": "Haciendita de la Ordeña, GUA, MX",
		"latitude": "20.30889",
		"longitude": "-100.51417",
		"countryCode": "MX",
		"population": 53
	}, {
		"cityId": "4001066",
		"shortName": "La Ordeña Dos",
		"longName": "La Ordeña Dos, San Luis Potosí, Mexico",
		"longCode": "La Ordeña Dos, SLP, MX",
		"latitude": "21.895",
		"longitude": "-100.61833",
		"countryCode": "MX",
		"population": 32
	}, {
		"cityId": "8908302",
		"shortName": "Ordeñitas",
		"longName": "Ordeñitas, Jalisco, Mexico",
		"longCode": "Ordeñitas, JAL, MX",
		"latitude": "19.24472",
		"longitude": "-102.78417",
		"countryCode": "MX",
		"population": 17
	}, {
		"cityId": "8942237",
		"shortName": "Ordeña de Rodolfo",
		"longName": "Ordeña de Rodolfo, Michoacán, Mexico",
		"longCode": "Ordeña de Rodolfo, MIC, MX",
		"latitude": "19.9875",
		"longitude": "-102.79722",
		"countryCode": "MX",
		"population": 5
	}]
}